i,time,message,,lat_nmea,,lon_nmea,,,,,,,,,,
9,1619168505.662186,$GPGGA,125059.30,5523.52009860,N,01022.88864575,E,4,11,0.9,7.595,M,39.466,M,1.3,0026*4C
10,1619168506.2006335,$GPGGA,125059.30,5523.52009860,N,01022.88864575,E,4,11,0.9,7.595,M,39.466,M,1.3,0026*4C
11,1619168506.738683,$GPGGA,125059.30,5523.52009860,N,01022.88864575,E,4,11,0.9,7.595,M,39.466,M,1.3,0026*4C
12,1619168507.2785523,$GPGGA,125059.30,5523.52009860,N,01022.88864575,E,4,11,0.9,7.595,M,39.466,M,1.3,0026*4C
13,1619168507.6801505,$GPGGA,125059.30,5523.52009860,N,01022.88864575,E,4,11,0.9,7.595,M,39.466,M,1.3,0026*4C
14,1619168508.3565967,$GPGGA,125059.30,5523.52009860,N,01022.88864575,E,4,11,0.9,7.595,M,39.466,M,1.3,0026*4C
15,1619168508.7584252,$GPGGA,125059.30,5523.52009860,N,01022.88864575,E,4,11,0.9,7.595,M,39.466,M,1.3,0026*4C
16,1619168509.297379,$GPGGA,125059.30,5523.52009860,N,01022.88864575,E,4,11,0.9,7.595,M,39.466,M,1.3,0026*4C
17,1619168509.973055,$GPGGA,125059.30,5523.52009860,N,01022.88864575,E,4,11,0.9,7.595,M,39.466,M,1.3,0026*4C
18,1619168510.5043333,$GPGGA,125103.90,5523.52009719,N,01022.88864864,E,4,13,0.8,7.614,M,39.466,M,1.9,0026*47
19,1619168511.0466812,$GPGGA,125103.90,5523.52009719,N,01022.88864864,E,4,13,0.8,7.614,M,39.466,M,1.9,0026*47
20,1619168511.582181,$GPGGA,125103.90,5523.52009719,N,01022.88864864,E,4,13,0.8,7.614,M,39.466,M,1.9,0026*47
21,1619168512.1208246,$GPGGA,125103.90,5523.52009719,N,01022.88864864,E,4,13,0.8,7.614,M,39.466,M,1.9,0026*47
22,1619168512.6600356,$GPGGA,125103.90,5523.52009719,N,01022.88864864,E,4,13,0.8,7.614,M,39.466,M,1.9,0026*47
23,1619168513.134794,$GPGGA,125103.90,5523.52009719,N,01022.88864864,E,4,13,0.8,7.614,M,39.466,M,1.9,0026*47
24,1619168513.6741514,$GPGGA,125103.90,5523.52009719,N,01022.88864864,E,4,13,0.8,7.614,M,39.466,M,1.9,0026*47
25,1619168514.2775366,$GPGGA,125103.90,5523.52009719,N,01022.88864864,E,4,13,0.8,7.614,M,39.466,M,1.9,0026*47
26,1619168514.816975,$GPGGA,125103.90,5523.52009719,N,01022.88864864,E,4,13,0.8,7.614,M,39.466,M,1.9,0026*47
27,1619168515.2826304,$GPGGA,125109.05,5523.52010170,N,01022.88862700,E,4,12,0.8,7.643,M,39.466,M,1.0,0026*41
28,1619168515.8944192,$GPGGA,125109.05,5523.52010170,N,01022.88862700,E,4,12,0.8,7.643,M,39.466,M,1.0,0026*41
29,1619168516.2973795,$GPGGA,125110.15,5523.52010461,N,01022.88864407,E,4,11,0.8,7.643,M,39.466,M,1.1,0026*4D
30,1619168517.037069,$GPGGA,125110.15,5523.52010461,N,01022.88864407,E,4,11,0.8,7.643,M,39.466,M,1.1,0026*4D
31,1619168517.7768903,$GPGGA,125110.15,5523.52010461,N,01022.88864407,E,4,11,0.8,7.643,M,39.466,M,1.1,0026*4D
32,1619168518.3157256,$GPGGA,125110.15,5523.52010461,N,01022.88864407,E,4,11,0.8,7.643,M,39.466,M,1.1,0026*4D
33,1619168518.8550365,$GPGGA,125110.15,5523.52010461,N,01022.88864407,E,4,11,0.8,7.643,M,39.466,M,1.1,0026*4D
34,1619168519.3944736,$GPGGA,125110.15,5523.52010461,N,01022.88864407,E,4,11,0.8,7.643,M,39.466,M,1.1,0026*4D
35,1619168519.7961764,$GPGGA,125110.15,5523.52010461,N,01022.88864407,E,4,11,0.8,7.643,M,39.466,M,1.1,0026*4D
36,1619168520.463923,$GPGGA,125110.15,5523.52010461,N,01022.88864407,E,4,11,0.8,7.643,M,39.466,M,1.1,0026*4D
37,1619168520.9384644,$GPGGA,125110.15,5523.52010461,N,01022.88864407,E,4,11,0.8,7.643,M,39.466,M,1.1,0026*4D
38,1619168521.5423498,$GPGGA,125110.15,5523.52010461,N,01022.88864407,E,4,11,0.8,7.643,M,39.466,M,1.1,0026*4D
39,1619168522.0813031,$GPGGA,125110.15,5523.52010461,N,01022.88864407,E,4,11,0.8,7.643,M,39.466,M,1.1,0026*4D
40,1619168522.6203234,$GPGGA,125110.15,5523.52010461,N,01022.88864407,E,4,11,0.8,7.643,M,39.466,M,1.1,0026*4D
41,1619168523.1597624,$GPGGA,125110.15,5523.52010461,N,01022.88864407,E,4,11,0.8,7.643,M,39.466,M,1.1,0026*4D
42,1619168523.6995714,$GPGGA,125110.15,5523.52010461,N,01022.88864407,E,4,11,0.8,7.643,M,39.466,M,1.1,0026*4D
43,1619168524.0999863,$GPGGA,125110.15,5523.52010461,N,01022.88864407,E,4,11,0.8,7.643,M,39.466,M,1.1,0026*4D
44,1619168524.6395013,$GPGGA,125110.15,5523.52010461,N,01022.88864407,E,4,11,0.8,7.643,M,39.466,M,1.1,0026*4D
45,1619168525.3154764,$GPGGA,125110.15,5523.52010461,N,01022.88864407,E,4,11,0.8,7.643,M,39.466,M,1.1,0026*4D
46,1619168525.8553839,$GPGGA,125119.35,5523.52097962,N,01022.88904176,E,4,13,0.8,7.667,M,39.466,M,1.4,0026*42
47,1619168526.394001,$GPGGA,125119.35,5523.52097962,N,01022.88904176,E,4,13,0.8,7.667,M,39.466,M,1.4,0026*42
48,1619168526.9982095,$GPGGA,125120.95,5523.52159907,N,01022.88936638,E,4,13,0.8,7.636,M,39.466,M,0.9,0026*46
49,1619168528.0027163,$GPGGA,125120.95,5523.52159907,N,01022.88936638,E,4,13,0.8,7.636,M,39.466,M,0.9,0026*46
50,1619168528.5431366,$GPGGA,125120.95,5523.52159907,N,01022.88936638,E,4,13,0.8,7.636,M,39.466,M,0.9,0026*46
51,1619168529.0804741,$GPGGA,125120.95,5523.52159907,N,01022.88936638,E,4,13,0.8,7.636,M,39.466,M,0.9,0026*46
52,1619168529.5550416,$GPGGA,125120.95,5523.52159907,N,01022.88936638,E,4,13,0.8,7.636,M,39.466,M,0.9,0026*46
53,1619168529.8949184,$GPGGA,125120.95,5523.52159907,N,01022.88936638,E,4,13,0.8,7.636,M,39.466,M,0.9,0026*46
54,1619168530.4233549,$GPGGA,125120.95,5523.52159907,N,01022.88936638,E,4,13,0.8,7.636,M,39.466,M,0.9,0026*46
55,1619168530.963075,$GPGGA,125120.95,5523.52159907,N,01022.88936638,E,4,13,0.8,7.636,M,39.466,M,0.9,0026*46
56,1619168531.5020025,$GPGGA,125120.95,5523.52159907,N,01022.88936638,E,4,13,0.8,7.636,M,39.466,M,0.9,0026*46
57,1619168532.0447297,$GPGGA,125120.95,5523.52159907,N,01022.88936638,E,4,13,0.8,7.636,M,39.466,M,0.9,0026*46
58,1619168532.4433122,$GPGGA,125120.95,5523.52159907,N,01022.88936638,E,4,13,0.8,7.636,M,39.466,M,0.9,0026*46
59,1619168533.3931274,$GPGGA,125120.95,5523.52159907,N,01022.88936638,E,4,13,0.8,7.636,M,39.466,M,0.9,0026*46
60,1619168533.9240127,$GPGGA,125120.95,5523.52159907,N,01022.88936638,E,4,13,0.8,7.636,M,39.466,M,0.9,0026*46
61,1619168534.3977997,$GPGGA,125127.95,5523.52455907,N,01022.89266564,E,4,12,0.8,7.732,M,39.466,M,0.9,0026*49
62,1619168535.0025744,$GPGGA,125127.95,5523.52455907,N,01022.89266564,E,4,12,0.8,7.732,M,39.466,M,0.9,0026*49
63,1619168535.4037542,$GPGGA,125127.95,5523.52455907,N,01022.89266564,E,4,12,0.8,7.732,M,39.466,M,0.9,0026*49
64,1619168536.08023,$GPGGA,125129.40,5523.52509259,N,01022.89355527,E,4,12,0.8,7.788,M,39.466,M,1.4,0026*4C
65,1619168536.618672,$GPGGA,125129.40,5523.52509259,N,01022.89355527,E,4,12,0.8,7.788,M,39.466,M,1.4,0026*4C
66,1619168537.0931537,$GPGGA,125129.40,5523.52509259,N,01022.89355527,E,4,12,0.8,7.788,M,39.466,M,1.4,0026*4C
67,1619168537.9627235,$GPGGA,125129.40,5523.52509259,N,01022.89355527,E,4,12,0.8,7.788,M,39.466,M,1.4,0026*4C
68,1619168538.5016296,$GPGGA,125129.40,5523.52509259,N,01022.89355527,E,4,12,0.8,7.788,M,39.466,M,1.4,0026*4C
69,1619168539.0405793,$GPGGA,125129.40,5523.52509259,N,01022.89355527,E,4,12,0.8,7.788,M,39.466,M,1.4,0026*4C
70,1619168539.5153584,$GPGGA,125129.40,5523.52509259,N,01022.89355527,E,4,12,0.8,7.788,M,39.466,M,1.4,0026*4C
71,1619168540.1181653,$GPGGA,125129.40,5523.52509259,N,01022.89355527,E,4,12,0.8,7.788,M,39.466,M,1.4,0026*4C
72,1619168540.6570013,$GPGGA,125129.40,5523.52509259,N,01022.89355527,E,4,12,0.8,7.788,M,39.466,M,1.4,0026*4C
73,1619168541.197717,$GPGGA,125129.40,5523.52509259,N,01022.89355527,E,4,12,0.8,7.788,M,39.466,M,1.4,0026*4C
74,1619168541.736178,$GPGGA,125135.40,5523.52740689,N,01022.89724809,E,4,10,1.0,7.890,M,39.466,M,1.4,0026*49
75,1619168542.1379428,$GPGGA,125135.40,5523.52740689,N,01022.89724809,E,4,10,1.0,7.890,M,39.466,M,1.4,0026*49
76,1619168542.8140895,$GPGGA,125135.40,5523.52740689,N,01022.89724809,E,4,10,1.0,7.890,M,39.466,M,1.4,0026*49
77,1619168543.352638,$GPGGA,125135.40,5523.52740689,N,01022.89724809,E,4,10,1.0,7.890,M,39.466,M,1.4,0026*49
78,1619168543.8837895,$GPGGA,125135.40,5523.52740689,N,01022.89724809,E,4,10,1.0,7.890,M,39.466,M,1.4,0026*49
79,1619168544.4235501,$GPGGA,125135.40,5523.52740689,N,01022.89724809,E,4,10,1.0,7.890,M,39.466,M,1.4,0026*49
80,1619168544.8993204,$GPGGA,125135.40,5523.52740689,N,01022.89724809,E,4,10,1.0,7.890,M,39.466,M,1.4,0026*49
81,1619168545.5003664,$GPGGA,125135.40,5523.52740689,N,01022.89724809,E,4,10,1.0,7.890,M,39.466,M,1.4,0026*49
82,1619168546.103853,$GPGGA,125135.40,5523.52740689,N,01022.89724809,E,4,10,1.0,7.890,M,39.466,M,1.4,0026*49
83,1619168546.8437877,$GPGGA,125135.40,5523.52740689,N,01022.89724809,E,4,10,1.0,7.890,M,39.466,M,1.4,0026*49
84,1619168547.383148,$GPGGA,125135.40,5523.52740689,N,01022.89724809,E,4,10,1.0,7.890,M,39.466,M,1.4,0026*49
85,1619168547.9222538,$GPGGA,125135.40,5523.52740689,N,01022.89724809,E,4,10,1.0,7.890,M,39.466,M,1.4,0026*49
86,1619168548.3239937,$GPGGA,125135.40,5523.52740689,N,01022.89724809,E,4,10,1.0,7.890,M,39.466,M,1.4,0026*49
87,1619168548.7995107,$GPGGA,125135.40,5523.52740689,N,01022.89724809,E,4,10,1.0,7.890,M,39.466,M,1.4,0026*49
88,1619168549.2749672,$GPGGA,125135.40,5523.52740689,N,01022.89724809,E,4,10,1.0,7.890,M,39.466,M,1.4,0026*49
89,1619168549.8159213,$GPGGA,125135.40,5523.52740689,N,01022.89724809,E,4,10,1.0,7.890,M,39.466,M,1.4,0026*49
90,1619168550.6176188,$GPGGA,125135.40,5523.52740689,N,01022.89724809,E,4,10,1.0,7.890,M,39.466,M,1.4,0026*49
91,1619168550.955789,$GPGGA,125135.40,5523.52740689,N,01022.89724809,E,4,10,1.0,7.890,M,39.466,M,1.4,0026*49
92,1619168551.6962743,$GPGGA,125135.40,5523.52740689,N,01022.89724809,E,4,10,1.0,7.890,M,39.466,M,1.4,0026*49
93,1619168552.2353652,$GPGGA,125135.40,5523.52740689,N,01022.89724809,E,4,10,1.0,7.890,M,39.466,M,1.4,0026*49
94,1619168552.7735193,$GPGGA,125135.40,5523.52740689,N,01022.89724809,E,4,10,1.0,7.890,M,39.466,M,1.4,0026*49
95,1619168553.3045912,$GPGGA,125135.40,5523.52740689,N,01022.89724809,E,4,10,1.0,7.890,M,39.466,M,1.4,0026*49
96,1619168553.844311,$GPGGA,125135.40,5523.52740689,N,01022.89724809,E,4,10,1.0,7.890,M,39.466,M,1.4,0026*49
97,1619168554.3178196,$GPGGA,125135.40,5523.52740689,N,01022.89724809,E,4,10,1.0,7.890,M,39.466,M,1.4,0026*49
98,1619168554.9225883,$GPGGA,125135.40,5523.52740689,N,01022.89724809,E,4,10,1.0,7.890,M,39.466,M,1.4,0026*49
99,1619168555.3962717,$GPGGA,125135.40,5523.52740689,N,01022.89724809,E,4,10,1.0,7.890,M,39.466,M,1.4,0026*49
100,1619168555.9996603,$GPGGA,125135.40,5523.52740689,N,01022.89724809,E,4,10,1.0,7.890,M,39.466,M,1.4,0026*49
101,1619168556.474656,$GPGGA,125135.40,5523.52740689,N,01022.89724809,E,4,10,1.0,7.890,M,39.466,M,1.4,0026*49
102,1619168557.0788944,$GPGGA,125135.40,5523.52740689,N,01022.89724809,E,4,10,1.0,7.890,M,39.466,M,1.4,0026*49
103,1619168557.5437937,$GPGGA,125135.40,5523.52740689,N,01022.89724809,E,4,10,1.0,7.890,M,39.466,M,1.4,0026*49
104,1619168557.955398,$GPGGA,125135.40,5523.52740689,N,01022.89724809,E,4,10,1.0,7.890,M,39.466,M,1.4,0026*49
105,1619168558.695127,$GPGGA,125135.40,5523.52740689,N,01022.89724809,E,4,10,1.0,7.890,M,39.466,M,1.4,0026*49
106,1619168559.234869,$GPGGA,125135.40,5523.52740689,N,01022.89724809,E,4,10,1.0,7.890,M,39.466,M,1.4,0026*49
107,1619168559.7728155,$GPGGA,125135.40,5523.52740689,N,01022.89724809,E,4,10,1.0,7.890,M,39.466,M,1.4,0026*49
108,1619168560.3043823,$GPGGA,125135.40,5523.52740689,N,01022.89724809,E,4,10,1.0,7.890,M,39.466,M,1.4,0026*49
109,1619168560.582876,$GPGGA,125135.40,5523.52740689,N,01022.89724809,E,4,10,1.0,7.890,M,39.466,M,1.4,0026*49
110,1619168561.3823357,$GPGGA,125135.40,5523.52740689,N,01022.89724809,E,4,10,1.0,7.890,M,39.466,M,1.4,0026*49
111,1619168561.7840195,$GPGGA,125135.40,5523.52740689,N,01022.89724809,E,4,10,1.0,7.890,M,39.466,M,1.4,0026*49
112,1619168562.1952124,$GPGGA,125135.40,5523.52740689,N,01022.89724809,E,4,10,1.0,7.890,M,39.466,M,1.4,0026*49
113,1619168562.7334673,$GPGGA,125135.40,5523.52740689,N,01022.89724809,E,4,10,1.0,7.890,M,39.466,M,1.4,0026*49
114,1619168563.2643323,$GPGGA,125135.40,5523.52740689,N,01022.89724809,E,4,10,1.0,7.890,M,39.466,M,1.4,0026*49
115,1619168563.6749237,$GPGGA,125157.05,5523.53694631,N,01022.89775713,E,4,08,1.3,8.321,M,39.466,M,2.0,0026*45
116,1619168564.415604,$GPGGA,125157.05,5523.53694631,N,01022.89775713,E,4,08,1.3,8.321,M,39.466,M,2.0,0026*45
117,1619168565.1553965,$GPGGA,125157.05,5523.53694631,N,01022.89775713,E,4,08,1.3,8.321,M,39.466,M,2.0,0026*45
118,1619168565.9604979,$GPGGA,125157.05,5523.53694631,N,01022.89775713,E,4,08,1.3,8.321,M,39.466,M,2.0,0026*45
119,1619168566.4989862,$GPGGA,125157.05,5523.53694631,N,01022.89775713,E,4,08,1.3,8.321,M,39.466,M,2.0,0026*45
120,1619168567.0374293,$GPGGA,125157.05,5523.53694631,N,01022.89775713,E,4,08,1.3,8.321,M,39.466,M,2.0,0026*45
121,1619168567.4396737,$GPGGA,125157.05,5523.53694631,N,01022.89775713,E,4,08,1.3,8.321,M,39.466,M,2.0,0026*45
122,1619168568.1167703,$GPGGA,125157.05,5523.53694631,N,01022.89775713,E,4,08,1.3,8.321,M,39.466,M,2.0,0026*45
123,1619168568.5817657,$GPGGA,125157.05,5523.53694631,N,01022.89775713,E,4,08,1.3,8.321,M,39.466,M,2.0,0026*45
124,1619168569.4592204,$GPGGA,125157.05,5523.53694631,N,01022.89775713,E,4,08,1.3,8.321,M,39.466,M,2.0,0026*45
125,1619168569.9982154,$GPGGA,125157.05,5523.53694631,N,01022.89775713,E,4,08,1.3,8.321,M,39.466,M,2.0,0026*45
126,1619168570.3363864,$GPGGA,125157.05,5523.53694631,N,01022.89775713,E,4,08,1.3,8.321,M,39.466,M,2.0,0026*45
127,1619168571.0767252,$GPGGA,125157.05,5523.53694631,N,01022.89775713,E,4,08,1.3,8.321,M,39.466,M,2.0,0026*45
128,1619168571.6166558,$GPGGA,125157.05,5523.53694631,N,01022.89775713,E,4,08,1.3,8.321,M,39.466,M,2.0,0026*45
129,1619168572.0817435,$GPGGA,125157.05,5523.53694631,N,01022.89775713,E,4,08,1.3,8.321,M,39.466,M,2.0,0026*45
130,1619168572.4229317,$GPGGA,125157.05,5523.53694631,N,01022.89775713,E,4,08,1.3,8.321,M,39.466,M,2.0,0026*45
131,1619168572.9590394,$GPGGA,125157.05,5523.53694631,N,01022.89775713,E,4,08,1.3,8.321,M,39.466,M,2.0,0026*45
132,1619168573.4984193,$GPGGA,125157.05,5523.53694631,N,01022.89775713,E,4,08,1.3,8.321,M,39.466,M,2.0,0026*45
133,1619168573.9642317,$GPGGA,125157.05,5523.53694631,N,01022.89775713,E,4,08,1.3,8.321,M,39.466,M,2.0,0026*45
134,1619168574.5757072,$GPGGA,125157.05,5523.53694631,N,01022.89775713,E,4,08,1.3,8.321,M,39.466,M,2.0,0026*45
135,1619168574.977924,$GPGGA,125157.05,5523.53694631,N,01022.89775713,E,4,08,1.3,8.321,M,39.466,M,2.0,0026*45
136,1619168575.6537735,$GPGGA,125157.05,5523.53694631,N,01022.89775713,E,4,08,1.3,8.321,M,39.466,M,2.0,0026*45
137,1619168576.1932933,$GPGGA,125209.45,5523.54254213,N,01022.89165569,E,4,10,0.9,8.555,M,39.466,M,1.5,0026*4B
138,1619168576.7245123,$GPGGA,125209.45,5523.54254213,N,01022.89165569,E,4,10,0.9,8.555,M,39.466,M,1.5,0026*4B
139,1619168577.2637188,$GPGGA,125209.45,5523.54254213,N,01022.89165569,E,4,10,0.9,8.555,M,39.466,M,1.5,0026*4B
140,1619168577.8039443,$GPGGA,125211.50,5523.54352600,N,01022.89064052,E,4,09,1.0,8.561,M,39.466,M,1.5,0026*4D
141,1619168578.2764406,$GPGGA,125211.50,5523.54352600,N,01022.89064052,E,4,09,1.0,8.561,M,39.466,M,1.5,0026*4D
142,1619168578.8803139,$GPGGA,125211.50,5523.54352600,N,01022.89064052,E,4,09,1.0,8.561,M,39.466,M,1.5,0026*4D
143,1619168579.4225132,$GPGGA,125211.50,5523.54352600,N,01022.89064052,E,4,09,1.0,8.561,M,39.466,M,1.5,0026*4D
144,1619168579.8210175,$GPGGA,125211.50,5523.54352600,N,01022.89064052,E,4,09,1.0,8.561,M,39.466,M,1.5,0026*4D
145,1619168580.4967284,$GPGGA,125211.50,5523.54352600,N,01022.89064052,E,4,09,1.0,8.561,M,39.466,M,1.5,0026*4D
146,1619168581.0363355,$GPGGA,125211.50,5523.54352600,N,01022.89064052,E,4,09,1.0,8.561,M,39.466,M,1.5,0026*4D
147,1619168581.5762024,$GPGGA,125211.50,5523.54352600,N,01022.89064052,E,4,09,1.0,8.561,M,39.466,M,1.5,0026*4D
148,1619168582.1143098,$GPGGA,125215.75,5523.54558555,N,01022.88852546,E,4,11,0.8,8.627,M,39.466,M,0.8,0026*40
149,1619168582.6548653,$GPGGA,125215.75,5523.54558555,N,01022.88852546,E,4,11,0.8,8.627,M,39.466,M,0.8,0026*40
150,1619168583.1199145,$GPGGA,125215.75,5523.54558555,N,01022.88852546,E,4,11,0.8,8.627,M,39.466,M,0.8,0026*40
151,1619168583.7240686,$GPGGA,125215.75,5523.54558555,N,01022.88852546,E,4,11,0.8,8.627,M,39.466,M,0.8,0026*40
152,1619168584.1976323,$GPGGA,125215.75,5523.54558555,N,01022.88852546,E,4,11,0.8,8.627,M,39.466,M,0.8,0026*40
153,1619168584.7373424,$GPGGA,125215.75,5523.54558555,N,01022.88852546,E,4,11,0.8,8.627,M,39.466,M,0.8,0026*40
154,1619168585.3411202,$GPGGA,125215.75,5523.54558555,N,01022.88852546,E,4,11,0.8,8.627,M,39.466,M,0.8,0026*40
155,1619168585.814993,$GPGGA,125215.75,5523.54558555,N,01022.88852546,E,4,11,0.8,8.627,M,39.466,M,0.8,0026*40
156,1619168586.418456,$GPGGA,125215.75,5523.54558555,N,01022.88852546,E,4,11,0.8,8.627,M,39.466,M,0.8,0026*40
157,1619168586.9576266,$GPGGA,125220.20,5523.54771222,N,01022.88637949,E,4,10,1.0,8.605,M,39.466,M,1.2,0026*45
158,1619168587.4252605,$GPGGA,125220.20,5523.54771222,N,01022.88637949,E,4,10,1.0,8.605,M,39.466,M,1.2,0026*45
159,1619168588.0355325,$GPGGA,125220.20,5523.54771222,N,01022.88637949,E,4,10,1.0,8.605,M,39.466,M,1.2,0026*45
160,1619168588.3737373,$GPGGA,125220.20,5523.54771222,N,01022.88637949,E,4,10,1.0,8.605,M,39.466,M,1.2,0026*45
161,1619168589.1141012,$GPGGA,125220.20,5523.54771222,N,01022.88637949,E,4,10,1.0,8.605,M,39.466,M,1.2,0026*45
162,1619168589.6452093,$GPGGA,125220.20,5523.54771222,N,01022.88637949,E,4,10,1.0,8.605,M,39.466,M,1.2,0026*45
163,1619168590.1837983,$GPGGA,125220.20,5523.54771222,N,01022.88637949,E,4,10,1.0,8.605,M,39.466,M,1.2,0026*45
164,1619168590.7223918,$GPGGA,125220.20,5523.54771222,N,01022.88637949,E,4,10,1.0,8.605,M,39.466,M,1.2,0026*45
165,1619168591.2610645,$GPGGA,125220.20,5523.54771222,N,01022.88637949,E,4,10,1.0,8.605,M,39.466,M,1.2,0026*45
166,1619168591.801916,$GPGGA,125220.20,5523.54771222,N,01022.88637949,E,4,10,1.0,8.605,M,39.466,M,1.2,0026*45
167,1619168592.3393176,$GPGGA,125220.20,5523.54771222,N,01022.88637949,E,4,10,1.0,8.605,M,39.466,M,1.2,0026*45
168,1619168592.8790665,$GPGGA,125220.20,5523.54771222,N,01022.88637949,E,4,10,1.0,8.605,M,39.466,M,1.2,0026*45
169,1619168593.4177563,$GPGGA,125220.20,5523.54771222,N,01022.88637949,E,4,10,1.0,8.605,M,39.466,M,1.2,0026*45
170,1619168593.9570382,$GPGGA,125220.20,5523.54771222,N,01022.88637949,E,4,10,1.0,8.605,M,39.466,M,1.2,0026*45
171,1619168594.4243927,$GPGGA,125227.75,5523.55133093,N,01022.88265637,E,4,10,0.9,8.540,M,39.466,M,1.8,0026*4E
172,1619168594.9618692,$GPGGA,125227.75,5523.55133093,N,01022.88265637,E,4,10,0.9,8.540,M,39.466,M,1.8,0026*4E
173,1619168595.573637,$GPGGA,125227.75,5523.55133093,N,01022.88265637,E,4,10,0.9,8.540,M,39.466,M,1.8,0026*4E
174,1619168596.113159,$GPGGA,125227.75,5523.55133093,N,01022.88265637,E,4,10,0.9,8.540,M,39.466,M,1.8,0026*4E
175,1619168596.5789597,$GPGGA,125227.75,5523.55133093,N,01022.88265637,E,4,10,0.9,8.540,M,39.466,M,1.8,0026*4E
176,1619168597.1906645,$GPGGA,125227.75,5523.55133093,N,01022.88265637,E,4,10,0.9,8.540,M,39.466,M,1.8,0026*4E
177,1619168597.5931485,$GPGGA,125227.75,5523.55133093,N,01022.88265637,E,4,10,0.9,8.540,M,39.466,M,1.8,0026*4E
178,1619168598.2610266,$GPGGA,125227.75,5523.55133093,N,01022.88265637,E,4,10,0.9,8.540,M,39.466,M,1.8,0026*4E
179,1619168598.800091,$GPGGA,125227.75,5523.55133093,N,01022.88265637,E,4,10,0.9,8.540,M,39.466,M,1.8,0026*4E
180,1619168599.3439016,$GPGGA,125227.75,5523.55133093,N,01022.88265637,E,4,10,0.9,8.540,M,39.466,M,1.8,0026*4E
181,1619168599.878019,$GPGGA,125227.75,5523.55133093,N,01022.88265637,E,4,10,0.9,8.540,M,39.466,M,1.8,0026*4E
182,1619168600.4173622,$GPGGA,125233.95,5523.55411167,N,01022.88070556,E,4,09,1.0,8.199,M,39.466,M,0.9,0026*48
183,1619168600.9630685,$GPGGA,125233.95,5523.55411167,N,01022.88070556,E,4,09,1.0,8.199,M,39.466,M,0.9,0026*48
184,1619168601.4952586,$GPGGA,125233.95,5523.55411167,N,01022.88070556,E,4,09,1.0,8.199,M,39.466,M,0.9,0026*48
185,1619168602.0344439,$GPGGA,125233.95,5523.55411167,N,01022.88070556,E,4,09,1.0,8.199,M,39.466,M,0.9,0026*48
186,1619168602.5762467,$GPGGA,125233.95,5523.55411167,N,01022.88070556,E,4,09,1.0,8.199,M,39.466,M,0.9,0026*48
187,1619168603.1041517,$GPGGA,125233.95,5523.55411167,N,01022.88070556,E,4,09,1.0,8.199,M,39.466,M,0.9,0026*48
188,1619168603.644193,$GPGGA,125233.95,5523.55411167,N,01022.88070556,E,4,09,1.0,8.199,M,39.466,M,0.9,0026*48
189,1619168604.1831088,$GPGGA,125233.95,5523.55411167,N,01022.88070556,E,4,09,1.0,8.199,M,39.466,M,0.9,0026*48
190,1619168604.7935417,$GPGGA,125238.25,5523.55494685,N,01022.88078935,E,4,07,1.4,8.113,M,39.466,M,1.3,0026*4C
191,1619168605.2632968,$GPGGA,125238.25,5523.55494685,N,01022.88078935,E,4,07,1.4,8.113,M,39.466,M,1.3,0026*4C
192,1619168605.7992527,$GPGGA,125238.25,5523.55494685,N,01022.88078935,E,4,07,1.4,8.113,M,39.466,M,1.3,0026*4C
193,1619168606.0738852,$GPGGA,125239.70,5523.55496450,N,01022.88080443,E,4,09,1.1,8.143,M,39.466,M,0.7,0026*45
194,1619168606.4751084,$GPGGA,125239.70,5523.55496450,N,01022.88080443,E,4,09,1.1,8.143,M,39.466,M,0.7,0026*45
195,1619168607.0783675,$GPGGA,125239.70,5523.55496450,N,01022.88080443,E,4,09,1.1,8.143,M,39.466,M,0.7,0026*45
196,1619168607.6838493,$GPGGA,125241.20,5523.55497305,N,01022.88080284,E,4,09,1.1,8.135,M,39.466,M,2.2,0026*42
197,1619168608.2224996,$GPGGA,125241.20,5523.55497305,N,01022.88080284,E,4,09,1.1,8.135,M,39.466,M,2.2,0026*42
198,1619168608.695428,$GPGGA,125241.20,5523.55497305,N,01022.88080284,E,4,09,1.1,8.135,M,39.466,M,2.2,0026*42
199,1619168609.298997,$GPGGA,125241.20,5523.55497305,N,01022.88080284,E,4,09,1.1,8.135,M,39.466,M,2.2,0026*42
200,1619168609.8388789,$GPGGA,125241.20,5523.55497305,N,01022.88080284,E,4,09,1.1,8.135,M,39.466,M,2.2,0026*42
201,1619168610.2400212,$GPGGA,125241.20,5523.55497305,N,01022.88080284,E,4,09,1.1,8.135,M,39.466,M,2.2,0026*42
202,1619168610.6443162,$GPGGA,125241.20,5523.55497305,N,01022.88080284,E,4,09,1.1,8.135,M,39.466,M,2.2,0026*42
203,1619168611.1857278,$GPGGA,125241.20,5523.55497305,N,01022.88080284,E,4,09,1.1,8.135,M,39.466,M,2.2,0026*42
204,1619168611.7213855,$GPGGA,125241.20,5523.55497305,N,01022.88080284,E,4,09,1.1,8.135,M,39.466,M,2.2,0026*42
205,1619168612.122323,$GPGGA,125241.20,5523.55497305,N,01022.88080284,E,4,09,1.1,8.135,M,39.466,M,2.2,0026*42
206,1619168612.533236,$GPGGA,125241.20,5523.55497305,N,01022.88080284,E,4,09,1.1,8.135,M,39.466,M,2.2,0026*42
207,1619168612.9354782,$GPGGA,125241.20,5523.55497305,N,01022.88080284,E,4,09,1.1,8.135,M,39.466,M,2.2,0026*42
208,1619168613.4742236,$GPGGA,125241.20,5523.55497305,N,01022.88080284,E,4,09,1.1,8.135,M,39.466,M,2.2,0026*42
209,1619168614.1422296,$GPGGA,125241.20,5523.55497305,N,01022.88080284,E,4,09,1.1,8.135,M,39.466,M,2.2,0026*42
210,1619168614.6811259,$GPGGA,125241.20,5523.55497305,N,01022.88080284,E,4,09,1.1,8.135,M,39.466,M,2.2,0026*42
211,1619168614.955934,$GPGGA,125241.20,5523.55497305,N,01022.88080284,E,4,09,1.1,8.135,M,39.466,M,2.2,0026*42
212,1619168615.4943419,$GPGGA,125241.20,5523.55497305,N,01022.88080284,E,4,09,1.1,8.135,M,39.466,M,2.2,0026*42
213,1619168616.0329173,$GPGGA,125241.20,5523.55497305,N,01022.88080284,E,4,09,1.1,8.135,M,39.466,M,2.2,0026*42
214,1619168616.563597,$GPGGA,125241.20,5523.55497305,N,01022.88080284,E,4,09,1.1,8.135,M,39.466,M,2.2,0026*42
215,1619168617.1028965,$GPGGA,125241.20,5523.55497305,N,01022.88080284,E,4,09,1.1,8.135,M,39.466,M,2.2,0026*42
216,1619168617.6419835,$GPGGA,125241.20,5523.55497305,N,01022.88080284,E,4,09,1.1,8.135,M,39.466,M,2.2,0026*42
217,1619168618.183446,$GPGGA,125241.20,5523.55497305,N,01022.88080284,E,4,09,1.1,8.135,M,39.466,M,2.2,0026*42
218,1619168618.7201817,$GPGGA,125241.20,5523.55497305,N,01022.88080284,E,4,09,1.1,8.135,M,39.466,M,2.2,0026*42
219,1619168619.2595844,$GPGGA,125241.20,5523.55497305,N,01022.88080284,E,4,09,1.1,8.135,M,39.466,M,2.2,0026*42
220,1619168619.7984638,$GPGGA,125241.20,5523.55497305,N,01022.88080284,E,4,09,1.1,8.135,M,39.466,M,2.2,0026*42
221,1619168620.3373244,$GPGGA,125241.20,5523.55497305,N,01022.88080284,E,4,09,1.1,8.135,M,39.466,M,2.2,0026*42
222,1619168620.8756435,$GPGGA,125241.20,5523.55497305,N,01022.88080284,E,4,09,1.1,8.135,M,39.466,M,2.2,0026*42
223,1619168621.4151108,$GPGGA,125241.20,5523.55497305,N,01022.88080284,E,4,09,1.1,8.135,M,39.466,M,2.2,0026*42
224,1619168621.955882,$GPGGA,125241.20,5523.55497305,N,01022.88080284,E,4,09,1.1,8.135,M,39.466,M,2.2,0026*42
225,1619168622.3558016,$GPGGA,125255.75,5523.55916312,N,01022.87838244,E,4,08,1.4,8.241,M,39.466,M,1.8,0026*40
226,1619168622.9591904,$GPGGA,125255.75,5523.55916312,N,01022.87838244,E,4,08,1.4,8.241,M,39.466,M,1.8,0026*40
227,1619168623.4984274,$GPGGA,125255.75,5523.55916312,N,01022.87838244,E,4,08,1.4,8.241,M,39.466,M,1.8,0026*40
228,1619168623.9735126,$GPGGA,125255.75,5523.55916312,N,01022.87838244,E,4,08,1.4,8.241,M,39.466,M,1.8,0026*40
229,1619168624.6412013,$GPGGA,125255.75,5523.55916312,N,01022.87838244,E,4,08,1.4,8.241,M,39.466,M,1.8,0026*40
230,1619168625.1828272,$GPGGA,125255.75,5523.55916312,N,01022.87838244,E,4,08,1.4,8.241,M,39.466,M,1.8,0026*40
231,1619168625.719016,$GPGGA,125255.75,5523.55916312,N,01022.87838244,E,4,08,1.4,8.241,M,39.466,M,1.8,0026*40
232,1619168626.2586992,$GPGGA,125255.75,5523.55916312,N,01022.87838244,E,4,08,1.4,8.241,M,39.466,M,1.8,0026*40
233,1619168626.7972105,$GPGGA,125255.75,5523.55916312,N,01022.87838244,E,4,08,1.4,8.241,M,39.466,M,1.8,0026*40
234,1619168627.336804,$GPGGA,125255.75,5523.55916312,N,01022.87838244,E,4,08,1.4,8.241,M,39.466,M,1.8,0026*40
235,1619168627.7378244,$GPGGA,125255.75,5523.55916312,N,01022.87838244,E,4,08,1.4,8.241,M,39.466,M,1.8,0026*40
236,1619168628.4143689,$GPGGA,125255.75,5523.55916312,N,01022.87838244,E,4,08,1.4,8.241,M,39.466,M,1.8,0026*40
237,1619168628.9543498,$GPGGA,125255.75,5523.55916312,N,01022.87838244,E,4,08,1.4,8.241,M,39.466,M,1.8,0026*40
238,1619168629.48387,$GPGGA,125255.75,5523.55916312,N,01022.87838244,E,4,08,1.4,8.241,M,39.466,M,1.8,0026*40
239,1619168629.895774,$GPGGA,125255.75,5523.55916312,N,01022.87838244,E,4,08,1.4,8.241,M,39.466,M,1.8,0026*40
240,1619168630.5632498,$GPGGA,125255.75,5523.55916312,N,01022.87838244,E,4,08,1.4,8.241,M,39.466,M,1.8,0026*40
241,1619168631.0424197,$GPGGA,125255.75,5523.55916312,N,01022.87838244,E,4,08,1.4,8.241,M,39.466,M,1.8,0026*40
242,1619168631.640165,$GPGGA,125255.75,5523.55916312,N,01022.87838244,E,4,08,1.4,8.241,M,39.466,M,1.8,0026*40
243,1619168632.1800385,$GPGGA,125255.75,5523.55916312,N,01022.87838244,E,4,08,1.4,8.241,M,39.466,M,1.8,0026*40
244,1619168632.7187197,$GPGGA,125255.75,5523.55916312,N,01022.87838244,E,4,08,1.4,8.241,M,39.466,M,1.8,0026*40
245,1619168633.2579997,$GPGGA,125255.75,5523.55916312,N,01022.87838244,E,4,08,1.4,8.241,M,39.466,M,1.8,0026*40
246,1619168633.7973156,$GPGGA,125255.75,5523.55916312,N,01022.87838244,E,4,08,1.4,8.241,M,39.466,M,1.8,0026*40
247,1619168634.3356023,$GPGGA,125255.75,5523.55916312,N,01022.87838244,E,4,08,1.4,8.241,M,39.466,M,1.8,0026*40
248,1619168634.8744228,$GPGGA,125255.75,5523.55916312,N,01022.87838244,E,4,08,1.4,8.241,M,39.466,M,1.8,0026*40
249,1619168635.414179,$GPGGA,125255.75,5523.55916312,N,01022.87838244,E,4,08,1.4,8.241,M,39.466,M,1.8,0026*40
250,1619168635.8799613,$GPGGA,125255.75,5523.55916312,N,01022.87838244,E,4,08,1.4,8.241,M,39.466,M,1.8,0026*40
251,1619168636.4842365,$GPGGA,125255.75,5523.55916312,N,01022.87838244,E,4,08,1.4,8.241,M,39.466,M,1.8,0026*40
252,1619168637.0224175,$GPGGA,125255.75,5523.55916312,N,01022.87838244,E,4,08,1.4,8.241,M,39.466,M,1.8,0026*40
253,1619168637.563995,$GPGGA,125255.75,5523.55916312,N,01022.87838244,E,4,08,1.4,8.241,M,39.466,M,1.8,0026*40
254,1619168638.101242,$GPGGA,125255.75,5523.55916312,N,01022.87838244,E,4,08,1.4,8.241,M,39.466,M,1.8,0026*40
255,1619168638.6396246,$GPGGA,125255.75,5523.55916312,N,01022.87838244,E,4,08,1.4,8.241,M,39.466,M,1.8,0026*40
256,1619168639.1139846,$GPGGA,125255.75,5523.55916312,N,01022.87838244,E,4,08,1.4,8.241,M,39.466,M,1.8,0026*40
257,1619168639.5167727,$GPGGA,125255.75,5523.55916312,N,01022.87838244,E,4,08,1.4,8.241,M,39.466,M,1.8,0026*40
258,1619168640.1840885,$GPGGA,125255.75,5523.55916312,N,01022.87838244,E,4,08,1.4,8.241,M,39.466,M,1.8,0026*40
259,1619168640.796325,$GPGGA,125255.75,5523.55916312,N,01022.87838244,E,4,08,1.4,8.241,M,39.466,M,1.8,0026*40
260,1619168641.3382537,$GPGGA,125255.75,5523.55916312,N,01022.87838244,E,4,08,1.4,8.241,M,39.466,M,1.8,0026*40
261,1619168641.7367902,$GPGGA,125255.75,5523.55916312,N,01022.87838244,E,4,08,1.4,8.241,M,39.466,M,1.8,0026*40
262,1619168642.340076,$GPGGA,125255.75,5523.55916312,N,01022.87838244,E,4,08,1.4,8.241,M,39.466,M,1.8,0026*40
263,1619168642.9447646,$GPGGA,125255.75,5523.55916312,N,01022.87838244,E,4,08,1.4,8.241,M,39.466,M,1.8,0026*40
264,1619168643.4832559,$GPGGA,125317.15,5523.56806712,N,01022.86483295,E,4,05,9.3,8.813,M,39.466,M,2.2,0026*41
265,1619168644.0214348,$GPGGA,125317.15,5523.56806712,N,01022.86483295,E,4,05,9.3,8.813,M,39.466,M,2.2,0026*41
266,1619168644.561625,$GPGGA,125317.15,5523.56806712,N,01022.86483295,E,4,05,9.3,8.813,M,39.466,M,2.2,0026*41
267,1619168645.100165,$GPGGA,125317.15,5523.56806712,N,01022.86483295,E,4,05,9.3,8.813,M,39.466,M,2.2,0026*41
268,1619168645.77558,$GPGGA,125317.15,5523.56806712,N,01022.86483295,E,4,05,9.3,8.813,M,39.466,M,2.2,0026*41
269,1619168646.3143344,$GPGGA,125317.15,5523.56806712,N,01022.86483295,E,4,05,9.3,8.813,M,39.466,M,2.2,0026*41
270,1619168647.1830144,$GPGGA,125317.15,5523.56806712,N,01022.86483295,E,4,05,9.3,8.813,M,39.466,M,2.2,0026*41
271,1619168647.6587486,$GPGGA,125317.15,5523.56806712,N,01022.86483295,E,4,05,9.3,8.813,M,39.466,M,2.2,0026*41
272,1619168648.0645096,$GPGGA,125317.15,5523.56806712,N,01022.86483295,E,4,05,9.3,8.813,M,39.466,M,2.2,0026*41
273,1619168648.599574,$GPGGA,125317.15,5523.56806712,N,01022.86483295,E,4,05,9.3,8.813,M,39.466,M,2.2,0026*41
274,1619168649.1422765,$GPGGA,125317.15,5523.56806712,N,01022.86483295,E,4,05,9.3,8.813,M,39.466,M,2.2,0026*41
275,1619168649.6773005,$GPGGA,125317.15,5523.56806712,N,01022.86483295,E,4,05,9.3,8.813,M,39.466,M,2.2,0026*41
276,1619168650.2167594,$GPGGA,125317.15,5523.56806712,N,01022.86483295,E,4,05,9.3,8.813,M,39.466,M,2.2,0026*41
277,1619168650.756467,$GPGGA,125317.15,5523.56806712,N,01022.86483295,E,4,05,9.3,8.813,M,39.466,M,2.2,0026*41
278,1619168651.2217872,$GPGGA,125317.15,5523.56806712,N,01022.86483295,E,4,05,9.3,8.813,M,39.466,M,2.2,0026*41
279,1619168651.8346803,$GPGGA,125317.15,5523.56806712,N,01022.86483295,E,4,05,9.3,8.813,M,39.466,M,2.2,0026*41
280,1619168652.3731353,$GPGGA,125317.15,5523.56806712,N,01022.86483295,E,4,05,9.3,8.813,M,39.466,M,2.2,0026*41
281,1619168652.7752178,$GPGGA,125317.15,5523.56806712,N,01022.86483295,E,4,05,9.3,8.813,M,39.466,M,2.2,0026*41
282,1619168653.4431498,$GPGGA,125317.15,5523.56806712,N,01022.86483295,E,4,05,9.3,8.813,M,39.466,M,2.2,0026*41
283,1619168653.9815912,$GPGGA,125317.15,5523.56806712,N,01022.86483295,E,4,05,9.3,8.813,M,39.466,M,2.2,0026*41
284,1619168654.520589,$GPGGA,125317.15,5523.56806712,N,01022.86483295,E,4,05,9.3,8.813,M,39.466,M,2.2,0026*41
285,1619168655.0599432,$GPGGA,125317.15,5523.56806712,N,01022.86483295,E,4,05,9.3,8.813,M,39.466,M,2.2,0026*41
286,1619168655.4617314,$GPGGA,125317.15,5523.56806712,N,01022.86483295,E,4,05,9.3,8.813,M,39.466,M,2.2,0026*41
287,1619168656.1378007,$GPGGA,125317.15,5523.56806712,N,01022.86483295,E,4,05,9.3,8.813,M,39.466,M,2.2,0026*41
288,1619168656.6769218,$GPGGA,125317.15,5523.56806712,N,01022.86483295,E,4,05,9.3,8.813,M,39.466,M,2.2,0026*41
289,1619168657.2162898,$GPGGA,125317.15,5523.56806712,N,01022.86483295,E,4,05,9.3,8.813,M,39.466,M,2.2,0026*41
290,1619168657.6178455,$GPGGA,125317.15,5523.56806712,N,01022.86483295,E,4,05,9.3,8.813,M,39.466,M,2.2,0026*41
291,1619168658.2954328,$GPGGA,125317.15,5523.56806712,N,01022.86483295,E,4,05,9.3,8.813,M,39.466,M,2.2,0026*41
292,1619168658.7600744,$GPGGA,125317.15,5523.56806712,N,01022.86483295,E,4,05,9.3,8.813,M,39.466,M,2.2,0026*41
293,1619168659.363708,$GPGGA,125317.15,5523.56806712,N,01022.86483295,E,4,05,9.3,8.813,M,39.466,M,2.2,0026*41
294,1619168659.9753456,$GPGGA,125317.15,5523.56806712,N,01022.86483295,E,4,05,9.3,8.813,M,39.466,M,2.2,0026*41
295,1619168660.4418213,$GPGGA,125317.15,5523.56806712,N,01022.86483295,E,4,05,9.3,8.813,M,39.466,M,2.2,0026*41
296,1619168660.8442023,$GPGGA,125317.15,5523.56806712,N,01022.86483295,E,4,05,9.3,8.813,M,39.466,M,2.2,0026*41
297,1619168661.5201433,$GPGGA,125317.15,5523.56806712,N,01022.86483295,E,4,05,9.3,8.813,M,39.466,M,2.2,0026*41
298,1619168662.0593486,$GPGGA,125317.15,5523.56806712,N,01022.86483295,E,4,05,9.3,8.813,M,39.466,M,2.2,0026*41
299,1619168662.597947,$GPGGA,125317.15,5523.56806712,N,01022.86483295,E,4,05,9.3,8.813,M,39.466,M,2.2,0026*41
300,1619168663.1376214,$GPGGA,125317.15,5523.56806712,N,01022.86483295,E,4,05,9.3,8.813,M,39.466,M,2.2,0026*41
301,1619168663.6767054,$GPGGA,125317.15,5523.56806712,N,01022.86483295,E,4,05,9.3,8.813,M,39.466,M,2.2,0026*41
302,1619168664.2151947,$GPGGA,125317.15,5523.56806712,N,01022.86483295,E,4,05,9.3,8.813,M,39.466,M,2.2,0026*41
303,1619168664.7548523,$GPGGA,125317.15,5523.56806712,N,01022.86483295,E,4,05,9.3,8.813,M,39.466,M,2.2,0026*41
304,1619168665.2203817,$GPGGA,125338.80,5523.57931503,N,01022.85214541,E,4,05,9.2,9.874,M,39.466,M,1.8,0026*4B
305,1619168665.759886,$GPGGA,125338.80,5523.57931503,N,01022.85214541,E,4,05,9.2,9.874,M,39.466,M,1.8,0026*4B
306,1619168666.3634548,$GPGGA,125338.80,5523.57931503,N,01022.85214541,E,4,05,9.2,9.874,M,39.466,M,1.8,0026*4B
307,1619168666.8378716,$GPGGA,125338.80,5523.57931503,N,01022.85214541,E,4,05,9.2,9.874,M,39.466,M,1.8,0026*4B
308,1619168667.3767564,$GPGGA,125338.80,5523.57931503,N,01022.85214541,E,4,05,9.2,9.874,M,39.466,M,1.8,0026*4B
309,1619168667.9799714,$GPGGA,125338.80,5523.57931503,N,01022.85214541,E,4,05,9.2,9.874,M,39.466,M,1.8,0026*4B
310,1619168668.5197637,$GPGGA,125338.80,5523.57931503,N,01022.85214541,E,4,05,9.2,9.874,M,39.466,M,1.8,0026*4B
311,1619168669.060832,$GPGGA,125338.80,5523.57931503,N,01022.85214541,E,4,05,9.2,9.874,M,39.466,M,1.8,0026*4B
312,1619168669.5977275,$GPGGA,125338.80,5523.57931503,N,01022.85214541,E,4,05,9.2,9.874,M,39.466,M,1.8,0026*4B
313,1619168669.9991608,$GPGGA,125338.80,5523.57931503,N,01022.85214541,E,4,05,9.2,9.874,M,39.466,M,1.8,0026*4B
314,1619168670.6028793,$GPGGA,125338.80,5523.57931503,N,01022.85214541,E,4,05,9.2,9.874,M,39.466,M,1.8,0026*4B
315,1619168671.1422148,$GPGGA,125338.80,5523.57931503,N,01022.85214541,E,4,05,9.2,9.874,M,39.466,M,1.8,0026*4B
316,1619168671.7544086,$GPGGA,125338.80,5523.57931503,N,01022.85214541,E,4,05,9.2,9.874,M,39.466,M,1.8,0026*4B
317,1619168672.086776,$GPGGA,125338.80,5523.57931503,N,01022.85214541,E,4,05,9.2,9.874,M,39.466,M,1.8,0026*4B
318,1619168672.558532,$GPGGA,125338.80,5523.57931503,N,01022.85214541,E,4,05,9.2,9.874,M,39.466,M,1.8,0026*4B
319,1619168673.097069,$GPGGA,125338.80,5523.57931503,N,01022.85214541,E,4,05,9.2,9.874,M,39.466,M,1.8,0026*4B
320,1619168673.4991567,$GPGGA,125338.80,5523.57931503,N,01022.85214541,E,4,05,9.2,9.874,M,39.466,M,1.8,0026*4B
321,1619168674.175144,$GPGGA,125338.80,5523.57931503,N,01022.85214541,E,4,05,9.2,9.874,M,39.466,M,1.8,0026*4B
322,1619168674.7784297,$GPGGA,125347.45,5523.58250918,N,01022.84587461,E,2,12,0.8,13.068,M,39.466,M,1.5,0026*70
323,1619168675.4540167,$GPGGA,125347.45,5523.58250918,N,01022.84587461,E,2,12,0.8,13.068,M,39.466,M,1.5,0026*70
324,1619168676.0572205,$GPGGA,125349.50,5523.58308751,N,01022.84362071,E,2,11,1.0,12.759,M,39.466,M,1.5,0026*73
325,1619168676.5967126,$GPGGA,125349.50,5523.58308751,N,01022.84362071,E,2,11,1.0,12.759,M,39.466,M,1.5,0026*73
326,1619168677.135717,$GPGGA,125349.50,5523.58308751,N,01022.84362071,E,2,11,1.0,12.759,M,39.466,M,1.5,0026*73
327,1619168677.5375311,$GPGGA,125349.50,5523.58308751,N,01022.84362071,E,2,11,1.0,12.759,M,39.466,M,1.5,0026*73
328,1619168678.1408947,$GPGGA,125349.50,5523.58308751,N,01022.84362071,E,2,11,1.0,12.759,M,39.466,M,1.5,0026*73
329,1619168678.7556202,$GPGGA,125349.50,5523.58308751,N,01022.84362071,E,2,11,1.0,12.759,M,39.466,M,1.5,0026*73
330,1619168679.283763,$GPGGA,125349.50,5523.58308751,N,01022.84362071,E,2,11,1.0,12.759,M,39.466,M,1.5,0026*73
331,1619168679.8233807,$GPGGA,125349.50,5523.58308751,N,01022.84362071,E,2,11,1.0,12.759,M,39.466,M,1.5,0026*73
332,1619168680.6360402,$GPGGA,125353.50,5523.58444867,N,01022.84014704,E,2,12,1.0,12.691,M,39.466,M,1.5,0026*7C
333,1619168680.973724,$GPGGA,125353.50,5523.58444867,N,01022.84014704,E,2,12,1.0,12.691,M,39.466,M,1.5,0026*7C
334,1619168681.713911,$GPGGA,125353.50,5523.58444867,N,01022.84014704,E,2,12,1.0,12.691,M,39.466,M,1.5,0026*7C
335,1619168682.1830938,$GPGGA,125353.50,5523.58444867,N,01022.84014704,E,2,12,1.0,12.691,M,39.466,M,1.5,0026*7C
336,1619168682.7842364,$GPGGA,125353.50,5523.58444867,N,01022.84014704,E,2,12,1.0,12.691,M,39.466,M,1.5,0026*7C
337,1619168683.3233378,$GPGGA,125353.50,5523.58444867,N,01022.84014704,E,2,12,1.0,12.691,M,39.466,M,1.5,0026*7C
338,1619168683.8618832,$GPGGA,125353.50,5523.58444867,N,01022.84014704,E,2,12,1.0,12.691,M,39.466,M,1.5,0026*7C
339,1619168684.40073,$GPGGA,125353.50,5523.58444867,N,01022.84014704,E,2,12,1.0,12.691,M,39.466,M,1.5,0026*7C
340,1619168684.94068,$GPGGA,125353.50,5523.58444867,N,01022.84014704,E,2,12,1.0,12.691,M,39.466,M,1.5,0026*7C
341,1619168685.4782462,$GPGGA,125353.50,5523.58444867,N,01022.84014704,E,2,12,1.0,12.691,M,39.466,M,1.5,0026*7C
342,1619168686.0179212,$GPGGA,125353.50,5523.58444867,N,01022.84014704,E,2,12,1.0,12.691,M,39.466,M,1.5,0026*7C
343,1619168686.4836397,$GPGGA,125353.50,5523.58444867,N,01022.84014704,E,2,12,1.0,12.691,M,39.466,M,1.5,0026*7C
344,1619168686.958232,$GPGGA,125400.70,5523.58803092,N,01022.83602912,E,2,10,1.2,13.196,M,39.466,M,1.7,0026*7E
345,1619168687.4975815,$GPGGA,125400.70,5523.58803092,N,01022.83602912,E,2,10,1.2,13.196,M,39.466,M,1.7,0026*7E
346,1619168688.1739278,$GPGGA,125400.70,5523.58803092,N,01022.83602912,E,2,10,1.2,13.196,M,39.466,M,1.7,0026*7E
347,1619168688.7132807,$GPGGA,125400.70,5523.58803092,N,01022.83602912,E,2,10,1.2,13.196,M,39.466,M,1.7,0026*7E
348,1619168689.11471,$GPGGA,125400.70,5523.58803092,N,01022.83602912,E,2,10,1.2,13.196,M,39.466,M,1.7,0026*7E
349,1619168689.7830055,$GPGGA,125400.70,5523.58803092,N,01022.83602912,E,2,10,1.2,13.196,M,39.466,M,1.7,0026*7E
350,1619168690.3238761,$GPGGA,125400.70,5523.58803092,N,01022.83602912,E,2,10,1.2,13.196,M,39.466,M,1.7,0026*7E
351,1619168690.861186,$GPGGA,125400.70,5523.58803092,N,01022.83602912,E,2,10,1.2,13.196,M,39.466,M,1.7,0026*7E
352,1619168691.4000812,$GPGGA,125400.70,5523.58803092,N,01022.83602912,E,2,10,1.2,13.196,M,39.466,M,1.7,0026*7E
353,1619168691.8743498,$GPGGA,125400.70,5523.58803092,N,01022.83602912,E,2,10,1.2,13.196,M,39.466,M,1.7,0026*7E
354,1619168692.276945,$GPGGA,125400.70,5523.58803092,N,01022.83602912,E,2,10,1.2,13.196,M,39.466,M,1.7,0026*7E
355,1619168692.9437778,$GPGGA,125400.70,5523.58803092,N,01022.83602912,E,2,10,1.2,13.196,M,39.466,M,1.7,0026*7E
356,1619168693.4191902,$GPGGA,125400.70,5523.58803092,N,01022.83602912,E,2,10,1.2,13.196,M,39.466,M,1.7,0026*7E
357,1619168694.021918,$GPGGA,125400.70,5523.58803092,N,01022.83602912,E,2,10,1.2,13.196,M,39.466,M,1.7,0026*7E
358,1619168694.6344042,$GPGGA,125407.90,5523.59266709,N,01022.83415058,E,2,11,1.0,14.742,M,39.466,M,1.9,0026*7C
359,1619168695.1731937,$GPGGA,125407.90,5523.59266709,N,01022.83415058,E,2,11,1.0,14.742,M,39.466,M,1.9,0026*7C
360,1619168695.7068138,$GPGGA,125409.20,5523.59344263,N,01022.83361959,E,2,12,0.8,14.979,M,39.466,M,1.2,0026*7A
361,1619168696.2442555,$GPGGA,125409.20,5523.59344263,N,01022.83361959,E,2,12,0.8,14.979,M,39.466,M,1.2,0026*7A
362,1619168696.7816405,$GPGGA,125409.20,5523.59344263,N,01022.83361959,E,2,12,0.8,14.979,M,39.466,M,1.2,0026*7A
363,1619168697.3226812,$GPGGA,125409.20,5523.59344263,N,01022.83361959,E,2,12,0.8,14.979,M,39.466,M,1.2,0026*7A
364,1619168697.8602014,$GPGGA,125409.20,5523.59344263,N,01022.83361959,E,2,12,0.8,14.979,M,39.466,M,1.2,0026*7A
365,1619168698.3986583,$GPGGA,125409.20,5523.59344263,N,01022.83361959,E,2,12,0.8,14.979,M,39.466,M,1.2,0026*7A
366,1619168698.9429731,$GPGGA,125412.40,5523.59552619,N,01022.83267287,E,2,11,1.2,15.406,M,39.466,M,1.4,0026*7B
367,1619168699.4127045,$GPGGA,125412.40,5523.59552619,N,01022.83267287,E,2,11,1.2,15.406,M,39.466,M,1.4,0026*7B
368,1619168700.0161943,$GPGGA,125412.40,5523.59552619,N,01022.83267287,E,2,11,1.2,15.406,M,39.466,M,1.4,0026*7B
369,1619168700.4185543,$GPGGA,125412.40,5523.59552619,N,01022.83267287,E,2,11,1.2,15.406,M,39.466,M,1.4,0026*7B
370,1619168700.9573646,$GPGGA,125412.40,5523.59552619,N,01022.83267287,E,2,11,1.2,15.406,M,39.466,M,1.4,0026*7B
371,1619168701.6337862,$GPGGA,125412.40,5523.59552619,N,01022.83267287,E,2,11,1.2,15.406,M,39.466,M,1.4,0026*7B
372,1619168702.0376484,$GPGGA,125412.40,5523.59552619,N,01022.83267287,E,2,11,1.2,15.406,M,39.466,M,1.4,0026*7B
373,1619168702.7034564,$GPGGA,125412.40,5523.59552619,N,01022.83267287,E,2,11,1.2,15.406,M,39.466,M,1.4,0026*7B
374,1619168703.2431142,$GPGGA,125412.40,5523.59552619,N,01022.83267287,E,2,11,1.2,15.406,M,39.466,M,1.4,0026*7B
375,1619168703.6441498,$GPGGA,125417.30,5523.59937494,N,01022.83246974,E,5,06,5.4,11.953,M,39.466,M,1.3,0026*78
376,1619168704.324064,$GPGGA,125417.30,5523.59937494,N,01022.83246974,E,5,06,5.4,11.953,M,39.466,M,1.3,0026*78
377,1619168704.7949696,$GPGGA,125417.30,5523.59937494,N,01022.83246974,E,5,06,5.4,11.953,M,39.466,M,1.3,0026*78
378,1619168705.3990557,$GPGGA,125418.90,5523.60078719,N,01022.83299204,E,5,06,5.3,13.085,M,39.466,M,0.9,0026*71
379,1619168705.9379976,$GPGGA,125418.90,5523.60078719,N,01022.83299204,E,5,06,5.3,13.085,M,39.466,M,0.9,0026*71
380,1619168706.4041154,$GPGGA,125418.90,5523.60078719,N,01022.83299204,E,5,06,5.3,13.085,M,39.466,M,0.9,0026*71
381,1619168707.0158675,$GPGGA,125418.90,5523.60078719,N,01022.83299204,E,5,06,5.3,13.085,M,39.466,M,0.9,0026*71
382,1619168707.5549836,$GPGGA,125418.90,5523.60078719,N,01022.83299204,E,5,06,5.3,13.085,M,39.466,M,0.9,0026*71
383,1619168708.0207684,$GPGGA,125418.90,5523.60078719,N,01022.83299204,E,5,06,5.3,13.085,M,39.466,M,0.9,0026*71
384,1619168708.624575,$GPGGA,125418.90,5523.60078719,N,01022.83299204,E,5,06,5.3,13.085,M,39.466,M,0.9,0026*71
385,1619168709.1635427,$GPGGA,125418.90,5523.60078719,N,01022.83299204,E,5,06,5.3,13.085,M,39.466,M,0.9,0026*71
386,1619168709.702707,$GPGGA,125418.90,5523.60078719,N,01022.83299204,E,5,06,5.3,13.085,M,39.466,M,0.9,0026*71
387,1619168710.24413,$GPGGA,125418.90,5523.60078719,N,01022.83299204,E,5,06,5.3,13.085,M,39.466,M,0.9,0026*71
388,1619168710.7812285,$GPGGA,125418.90,5523.60078719,N,01022.83299204,E,5,06,5.3,13.085,M,39.466,M,0.9,0026*71
389,1619168711.3215969,$GPGGA,125418.90,5523.60078719,N,01022.83299204,E,5,06,5.3,13.085,M,39.466,M,0.9,0026*71
390,1619168711.8593698,$GPGGA,125418.90,5523.60078719,N,01022.83299204,E,5,06,5.3,13.085,M,39.466,M,0.9,0026*71
391,1619168712.3979886,$GPGGA,125418.90,5523.60078719,N,01022.83299204,E,5,06,5.3,13.085,M,39.466,M,0.9,0026*71
392,1619168712.9363563,$GPGGA,125418.90,5523.60078719,N,01022.83299204,E,5,06,5.3,13.085,M,39.466,M,0.9,0026*71
393,1619168713.4762175,$GPGGA,125418.90,5523.60078719,N,01022.83299204,E,5,06,5.3,13.085,M,39.466,M,0.9,0026*71
394,1619168714.015583,$GPGGA,125418.90,5523.60078719,N,01022.83299204,E,5,06,5.3,13.085,M,39.466,M,0.9,0026*71
395,1619168714.55423,$GPGGA,125418.90,5523.60078719,N,01022.83299204,E,5,06,5.3,13.085,M,39.466,M,0.9,0026*71
396,1619168715.0931227,$GPGGA,125418.90,5523.60078719,N,01022.83299204,E,5,06,5.3,13.085,M,39.466,M,0.9,0026*71
397,1619168715.6239667,$GPGGA,125418.90,5523.60078719,N,01022.83299204,E,5,06,5.3,13.085,M,39.466,M,0.9,0026*71
398,1619168716.1634035,$GPGGA,125418.90,5523.60078719,N,01022.83299204,E,5,06,5.3,13.085,M,39.466,M,0.9,0026*71
399,1619168716.7021248,$GPGGA,125418.90,5523.60078719,N,01022.83299204,E,5,06,5.3,13.085,M,39.466,M,0.9,0026*71
400,1619168717.2411277,$GPGGA,125418.90,5523.60078719,N,01022.83299204,E,5,06,5.3,13.085,M,39.466,M,0.9,0026*71
401,1619168718.0540378,$GPGGA,125431.20,5523.60687181,N,01022.82456865,E,5,06,5.3,12.259,M,39.466,M,1.2,0026*71
402,1619168718.5847504,$GPGGA,125431.20,5523.60687181,N,01022.82456865,E,5,06,5.3,12.259,M,39.466,M,1.2,0026*71
403,1619168719.0585654,$GPGGA,125431.20,5523.60687181,N,01022.82456865,E,5,06,5.3,12.259,M,39.466,M,1.2,0026*71
404,1619168719.4616117,$GPGGA,125431.20,5523.60687181,N,01022.82456865,E,5,06,5.3,12.259,M,39.466,M,1.2,0026*71
405,1619168720.201869,$GPGGA,125431.20,5523.60687181,N,01022.82456865,E,5,06,5.3,12.259,M,39.466,M,1.2,0026*71
406,1619168720.7409348,$GPGGA,125431.20,5523.60687181,N,01022.82456865,E,5,06,5.3,12.259,M,39.466,M,1.2,0026*71
407,1619168721.2800927,$GPGGA,125431.20,5523.60687181,N,01022.82456865,E,5,06,5.3,12.259,M,39.466,M,1.2,0026*71
408,1619168721.8184378,$GPGGA,125431.20,5523.60687181,N,01022.82456865,E,5,06,5.3,12.259,M,39.466,M,1.2,0026*71
409,1619168722.220603,$GPGGA,125431.20,5523.60687181,N,01022.82456865,E,5,06,5.3,12.259,M,39.466,M,1.2,0026*71
410,1619168722.8238626,$GPGGA,125431.20,5523.60687181,N,01022.82456865,E,5,06,5.3,12.259,M,39.466,M,1.2,0026*71
411,1619168723.3628542,$GPGGA,125431.20,5523.60687181,N,01022.82456865,E,5,06,5.3,12.259,M,39.466,M,1.2,0026*71
412,1619168723.9755507,$GPGGA,125431.20,5523.60687181,N,01022.82456865,E,5,06,5.3,12.259,M,39.466,M,1.2,0026*71
413,1619168724.5166576,$GPGGA,125431.20,5523.60687181,N,01022.82456865,E,5,06,5.3,12.259,M,39.466,M,1.2,0026*71
414,1619168725.0526164,$GPGGA,125431.20,5523.60687181,N,01022.82456865,E,5,06,5.3,12.259,M,39.466,M,1.2,0026*71
415,1619168725.5835805,$GPGGA,125431.20,5523.60687181,N,01022.82456865,E,5,06,5.3,12.259,M,39.466,M,1.2,0026*71
416,1619168726.123323,$GPGGA,125431.20,5523.60687181,N,01022.82456865,E,5,06,5.3,12.259,M,39.466,M,1.2,0026*71
417,1619168726.6619837,$GPGGA,125431.20,5523.60687181,N,01022.82456865,E,5,06,5.3,12.259,M,39.466,M,1.2,0026*71
418,1619168727.1359086,$GPGGA,125431.20,5523.60687181,N,01022.82456865,E,5,06,5.3,12.259,M,39.466,M,1.2,0026*71
419,1619168727.7406065,$GPGGA,125431.20,5523.60687181,N,01022.82456865,E,5,06,5.3,12.259,M,39.466,M,1.2,0026*71
420,1619168728.2143278,$GPGGA,125431.20,5523.60687181,N,01022.82456865,E,5,06,5.3,12.259,M,39.466,M,1.2,0026*71
421,1619168728.7532856,$GPGGA,125431.20,5523.60687181,N,01022.82456865,E,5,06,5.3,12.259,M,39.466,M,1.2,0026*71
422,1619168729.2199967,$GPGGA,125431.20,5523.60687181,N,01022.82456865,E,5,06,5.3,12.259,M,39.466,M,1.2,0026*71
423,1619168730.1617134,$GPGGA,125443.15,5523.61287408,N,01022.81608461,E,5,06,5.3,11.474,M,39.466,M,2.2,0026*78
424,1619168730.5634043,$GPGGA,125443.15,5523.61287408,N,01022.81608461,E,5,06,5.3,11.474,M,39.466,M,2.2,0026*78
425,1619168731.2398453,$GPGGA,125443.15,5523.61287408,N,01022.81608461,E,5,06,5.3,11.474,M,39.466,M,2.2,0026*78
426,1619168731.7798705,$GPGGA,125443.15,5523.61287408,N,01022.81608461,E,5,06,5.3,11.474,M,39.466,M,2.2,0026*78
427,1619168732.317416,$GPGGA,125443.15,5523.61287408,N,01022.81608461,E,5,06,5.3,11.474,M,39.466,M,2.2,0026*78
428,1619168732.8564413,$GPGGA,125443.15,5523.61287408,N,01022.81608461,E,5,06,5.3,11.474,M,39.466,M,2.2,0026*78
429,1619168733.325318,$GPGGA,125446.65,5523.61491538,N,01022.81444103,E,5,06,5.3,11.902,M,39.466,M,1.6,0026*79
430,1619168733.935659,$GPGGA,125446.65,5523.61491538,N,01022.81444103,E,5,06,5.3,11.902,M,39.466,M,1.6,0026*79
431,1619168734.3362958,$GPGGA,125446.65,5523.61491538,N,01022.81444103,E,5,06,5.3,11.902,M,39.466,M,1.6,0026*79
432,1619168734.940456,$GPGGA,125446.65,5523.61491538,N,01022.81444103,E,5,06,5.3,11.902,M,39.466,M,1.6,0026*79
433,1619168735.4789114,$GPGGA,125446.65,5523.61491538,N,01022.81444103,E,5,06,5.3,11.902,M,39.466,M,1.6,0026*79
434,1619168736.082591,$GPGGA,125446.65,5523.61491538,N,01022.81444103,E,5,06,5.3,11.902,M,39.466,M,1.6,0026*79
435,1619168736.6224194,$GPGGA,125446.65,5523.61491538,N,01022.81444103,E,5,06,5.3,11.902,M,39.466,M,1.6,0026*79
436,1619168737.433861,$GPGGA,125446.65,5523.61491538,N,01022.81444103,E,5,06,5.3,11.902,M,39.466,M,1.6,0026*79
437,1619168737.9741135,$GPGGA,125446.65,5523.61491538,N,01022.81444103,E,5,06,5.3,11.902,M,39.466,M,1.6,0026*79
438,1619168738.5041184,$GPGGA,125446.65,5523.61491538,N,01022.81444103,E,5,06,5.3,11.902,M,39.466,M,1.6,0026*79
439,1619168739.0436273,$GPGGA,125446.65,5523.61491538,N,01022.81444103,E,5,06,5.3,11.902,M,39.466,M,1.6,0026*79
440,1619168739.5831122,$GPGGA,125452.85,5523.61877421,N,01022.81103678,E,5,07,3.3,12.254,M,39.466,M,0.9,0026*70
441,1619168740.127393,$GPGGA,125452.85,5523.61877421,N,01022.81103678,E,5,07,3.3,12.254,M,39.466,M,0.9,0026*70
442,1619168740.9342341,$GPGGA,125452.85,5523.61877421,N,01022.81103678,E,5,07,3.3,12.254,M,39.466,M,0.9,0026*70
443,1619168741.4738576,$GPGGA,125452.85,5523.61877421,N,01022.81103678,E,5,07,3.3,12.254,M,39.466,M,0.9,0026*70
444,1619168742.0039265,$GPGGA,125452.85,5523.61877421,N,01022.81103678,E,5,07,3.3,12.254,M,39.466,M,0.9,0026*70
445,1619168742.5429914,$GPGGA,125452.85,5523.61877421,N,01022.81103678,E,5,07,3.3,12.254,M,39.466,M,0.9,0026*70
446,1619168743.0855966,$GPGGA,125452.85,5523.61877421,N,01022.81103678,E,5,07,3.3,12.254,M,39.466,M,0.9,0026*70
447,1619168743.620909,$GPGGA,125452.85,5523.61877421,N,01022.81103678,E,5,07,3.3,12.254,M,39.466,M,0.9,0026*70
448,1619168744.1603682,$GPGGA,125457.70,5523.62156647,N,01022.80840360,E,5,06,5.3,12.411,M,39.466,M,1.7,0026*78
449,1619168744.6342423,$GPGGA,125457.70,5523.62156647,N,01022.80840360,E,5,06,5.3,12.411,M,39.466,M,1.7,0026*78
450,1619168745.17396,$GPGGA,125457.70,5523.62156647,N,01022.80840360,E,5,06,5.3,12.411,M,39.466,M,1.7,0026*78
451,1619168745.7773259,$GPGGA,125457.70,5523.62156647,N,01022.80840360,E,5,06,5.3,12.411,M,39.466,M,1.7,0026*78
452,1619168746.3169904,$GPGGA,125457.70,5523.62156647,N,01022.80840360,E,5,06,5.3,12.411,M,39.466,M,1.7,0026*78
453,1619168746.7822556,$GPGGA,125457.70,5523.62156647,N,01022.80840360,E,5,06,5.3,12.411,M,39.466,M,1.7,0026*78
454,1619168747.3937135,$GPGGA,125457.70,5523.62156647,N,01022.80840360,E,5,06,5.3,12.411,M,39.466,M,1.7,0026*78
455,1619168747.9335496,$GPGGA,125457.70,5523.62156647,N,01022.80840360,E,5,06,5.3,12.411,M,39.466,M,1.7,0026*78
456,1619168748.399546,$GPGGA,125457.70,5523.62156647,N,01022.80840360,E,5,06,5.3,12.411,M,39.466,M,1.7,0026*78
457,1619168749.0033202,$GPGGA,125457.70,5523.62156647,N,01022.80840360,E,5,06,5.3,12.411,M,39.466,M,1.7,0026*78
458,1619168749.5428689,$GPGGA,125457.70,5523.62156647,N,01022.80840360,E,5,06,5.3,12.411,M,39.466,M,1.7,0026*78
459,1619168750.0831685,$GPGGA,125457.70,5523.62156647,N,01022.80840360,E,5,06,5.3,12.411,M,39.466,M,1.7,0026*78
460,1619168750.4832823,$GPGGA,125457.70,5523.62156647,N,01022.80840360,E,5,06,5.3,12.411,M,39.466,M,1.7,0026*78
461,1619168751.2244053,$GPGGA,125504.90,5523.62579138,N,01022.80456320,E,5,06,5.3,12.643,M,39.466,M,1.9,0026*73
462,1619168751.9639075,$GPGGA,125504.90,5523.62579138,N,01022.80456320,E,5,06,5.3,12.643,M,39.466,M,1.9,0026*73
463,1619168752.4381256,$GPGGA,125504.90,5523.62579138,N,01022.80456320,E,5,06,5.3,12.643,M,39.466,M,1.9,0026*73
464,1619168753.0425935,$GPGGA,125504.90,5523.62579138,N,01022.80456320,E,5,06,5.3,12.643,M,39.466,M,1.9,0026*73
465,1619168753.5817647,$GPGGA,125504.90,5523.62579138,N,01022.80456320,E,5,06,5.3,12.643,M,39.466,M,1.9,0026*73
466,1619168753.9826298,$GPGGA,125504.90,5523.62579138,N,01022.80456320,E,5,06,5.3,12.643,M,39.466,M,1.9,0026*73
467,1619168754.6592345,$GPGGA,125504.90,5523.62579138,N,01022.80456320,E,5,06,5.3,12.643,M,39.466,M,1.9,0026*73
468,1619168755.1986766,$GPGGA,125504.90,5523.62579138,N,01022.80456320,E,5,06,5.3,12.643,M,39.466,M,1.9,0026*73
469,1619168755.7370334,$GPGGA,125504.90,5523.62579138,N,01022.80456320,E,5,06,5.3,12.643,M,39.466,M,1.9,0026*73
470,1619168756.2763398,$GPGGA,125504.90,5523.62579138,N,01022.80456320,E,5,06,5.3,12.643,M,39.466,M,1.9,0026*73
471,1619168756.8155668,$GPGGA,125504.90,5523.62579138,N,01022.80456320,E,5,06,5.3,12.643,M,39.466,M,1.9,0026*73
472,1619168757.2811909,$GPGGA,125504.90,5523.62579138,N,01022.80456320,E,5,06,5.3,12.643,M,39.466,M,1.9,0026*73
473,1619168757.8932602,$GPGGA,125504.90,5523.62579138,N,01022.80456320,E,5,06,5.3,12.643,M,39.466,M,1.9,0026*73
474,1619168758.359609,$GPGGA,125511.80,5523.62992418,N,01022.80335284,E,5,05,7.1,12.753,M,39.466,M,1.8,0026*77
475,1619168758.9639502,$GPGGA,125511.80,5523.62992418,N,01022.80335284,E,5,05,7.1,12.753,M,39.466,M,1.8,0026*77
476,1619168759.5022619,$GPGGA,125511.80,5523.62992418,N,01022.80335284,E,5,05,7.1,12.753,M,39.466,M,1.8,0026*77
477,1619168760.041522,$GPGGA,125511.80,5523.62992418,N,01022.80335284,E,5,05,7.1,12.753,M,39.466,M,1.8,0026*77
478,1619168760.5811687,$GPGGA,125511.80,5523.62992418,N,01022.80335284,E,5,05,7.1,12.753,M,39.466,M,1.8,0026*77
479,1619168760.981959,$GPGGA,125511.80,5523.62992418,N,01022.80335284,E,5,05,7.1,12.753,M,39.466,M,1.8,0026*77
480,1619168761.658346,$GPGGA,125511.80,5523.62992418,N,01022.80335284,E,5,05,7.1,12.753,M,39.466,M,1.8,0026*77
481,1619168762.1975796,$GPGGA,125511.80,5523.62992418,N,01022.80335284,E,5,05,7.1,12.753,M,39.466,M,1.8,0026*77
482,1619168762.7362692,$GPGGA,125511.80,5523.62992418,N,01022.80335284,E,5,05,7.1,12.753,M,39.466,M,1.8,0026*77
483,1619168763.2757673,$GPGGA,125511.80,5523.62992418,N,01022.80335284,E,5,05,7.1,12.753,M,39.466,M,1.8,0026*77
484,1619168763.8145564,$GPGGA,125511.80,5523.62992418,N,01022.80335284,E,5,05,7.1,12.753,M,39.466,M,1.8,0026*77
485,1619168764.2168894,$GPGGA,125511.80,5523.62992418,N,01022.80335284,E,5,05,7.1,12.753,M,39.466,M,1.8,0026*77
486,1619168764.8847437,$GPGGA,125511.80,5523.62992418,N,01022.80335284,E,5,05,7.1,12.753,M,39.466,M,1.8,0026*77
487,1619168765.4238732,$GPGGA,125511.80,5523.62992418,N,01022.80335284,E,5,05,7.1,12.753,M,39.466,M,1.8,0026*77
488,1619168765.8337533,$GPGGA,125511.80,5523.62992418,N,01022.80335284,E,5,05,7.1,12.753,M,39.466,M,1.8,0026*77
489,1619168766.5018516,$GPGGA,125511.80,5523.62992418,N,01022.80335284,E,5,05,7.1,12.753,M,39.466,M,1.8,0026*77
490,1619168767.040647,$GPGGA,125511.80,5523.62992418,N,01022.80335284,E,5,05,7.1,12.753,M,39.466,M,1.8,0026*77
491,1619168767.5790696,$GPGGA,125511.80,5523.62992418,N,01022.80335284,E,5,05,7.1,12.753,M,39.466,M,1.8,0026*77
492,1619168768.0536416,$GPGGA,125511.80,5523.62992418,N,01022.80335284,E,5,05,7.1,12.753,M,39.466,M,1.8,0026*77
493,1619168768.6583283,$GPGGA,125511.80,5523.62992418,N,01022.80335284,E,5,05,7.1,12.753,M,39.466,M,1.8,0026*77
494,1619168769.1969256,$GPGGA,125511.80,5523.62992418,N,01022.80335284,E,5,05,7.1,12.753,M,39.466,M,1.8,0026*77
495,1619168769.7360702,$GPGGA,125511.80,5523.62992418,N,01022.80335284,E,5,05,7.1,12.753,M,39.466,M,1.8,0026*77
496,1619168770.073885,$GPGGA,125511.80,5523.62992418,N,01022.80335284,E,5,05,7.1,12.753,M,39.466,M,1.8,0026*77
497,1619168770.4030573,$GPGGA,125511.80,5523.62992418,N,01022.80335284,E,5,05,7.1,12.753,M,39.466,M,1.8,0026*77
498,1619168771.0146875,$GPGGA,125511.80,5523.62992418,N,01022.80335284,E,5,05,7.1,12.753,M,39.466,M,1.8,0026*77
499,1619168771.619256,$GPGGA,125511.80,5523.62992418,N,01022.80335284,E,5,05,7.1,12.753,M,39.466,M,1.8,0026*77
500,1619168772.157186,$GPGGA,125511.80,5523.62992418,N,01022.80335284,E,5,05,7.1,12.753,M,39.466,M,1.8,0026*77
501,1619168772.69672,$GPGGA,125511.80,5523.62992418,N,01022.80335284,E,5,05,7.1,12.753,M,39.466,M,1.8,0026*77
502,1619168773.1623416,$GPGGA,125511.80,5523.62992418,N,01022.80335284,E,5,05,7.1,12.753,M,39.466,M,1.8,0026*77
503,1619168773.7766798,$GPGGA,125527.30,5523.63452999,N,01022.81560111,E,2,13,0.9,15.367,M,39.466,M,1.3,0026*75
504,1619168774.314041,$GPGGA,125527.30,5523.63452999,N,01022.81560111,E,2,13,0.9,15.367,M,39.466,M,1.3,0026*75
505,1619168774.7153342,$GPGGA,125527.30,5523.63452999,N,01022.81560111,E,2,13,0.9,15.367,M,39.466,M,1.3,0026*75
506,1619168775.3228288,$GPGGA,125528.80,5523.63516845,N,01022.81680031,E,2,12,1.0,15.063,M,39.466,M,0.8,0026*7A
507,1619168775.9227352,$GPGGA,125528.80,5523.63516845,N,01022.81680031,E,2,12,1.0,15.063,M,39.466,M,0.8,0026*7A
508,1619168776.4613965,$GPGGA,125528.80,5523.63516845,N,01022.81680031,E,2,12,1.0,15.063,M,39.466,M,0.8,0026*7A
509,1619168777.0003445,$GPGGA,125528.80,5523.63516845,N,01022.81680031,E,2,12,1.0,15.063,M,39.466,M,0.8,0026*7A
510,1619168777.604843,$GPGGA,125528.80,5523.63516845,N,01022.81680031,E,2,12,1.0,15.063,M,39.466,M,0.8,0026*7A
511,1619168778.2150283,$GPGGA,125528.80,5523.63516845,N,01022.81680031,E,2,12,1.0,15.063,M,39.466,M,0.8,0026*7A
512,1619168778.8826795,$GPGGA,125528.80,5523.63516845,N,01022.81680031,E,2,12,1.0,15.063,M,39.466,M,0.8,0026*7A
513,1619168779.4216728,GPGGA,125532.95,5523.63661836,N,01022.81896966,E,2,12,0.9,14.415,M,39.466,M,2.0,0026*76
514,1619168779.9614575,GPGGA,125532.95,5523.63661836,N,01022.81896966,E,2,12,0.9,14.415,M,39.466,M,2.0,0026*76
515,1619168780.43559,GPGGA,125532.95,5523.63661836,N,01022.81896966,E,2,12,0.9,14.415,M,39.466,M,2.0,0026*76
516,1619168781.039001,$GPGGA,125534.50,5523.63715787,N,01022.81918359,E,2,13,0.8,14.267,M,39.466,M,1.5,0026*7A
517,1619168781.578111,$GPGGA,125534.50,5523.63715787,N,01022.81918359,E,2,13,0.8,14.267,M,39.466,M,1.5,0026*7A
518,1619168782.1171196,$GPGGA,125534.50,5523.63715787,N,01022.81918359,E,2,13,0.8,14.267,M,39.466,M,1.5,0026*7A
519,1619168782.6564484,$GPGGA,125534.50,5523.63715787,N,01022.81918359,E,2,13,0.8,14.267,M,39.466,M,1.5,0026*7A
520,1619168783.1225324,$GPGGA,125534.50,5523.63715787,N,01022.81918359,E,2,13,0.8,14.267,M,39.466,M,1.5,0026*7A
521,1619168783.5975306,$GPGGA,125534.50,5523.63715787,N,01022.81918359,E,2,13,0.8,14.267,M,39.466,M,1.5,0026*7A
522,1619168784.2738345,$GPGGA,125534.50,5523.63715787,N,01022.81918359,E,2,13,0.8,14.267,M,39.466,M,1.5,0026*7A
523,1619168784.804413,$GPGGA,125534.50,5523.63715787,N,01022.81918359,E,2,13,0.8,14.267,M,39.466,M,1.5,0026*7A
524,1619168785.3435392,$GPGGA,125538.60,5523.63914208,N,01022.82119220,E,2,13,0.8,13.992,M,39.466,M,1.6,0026*78
525,1619168785.8181756,$GPGGA,125538.60,5523.63914208,N,01022.82119220,E,2,13,0.8,13.992,M,39.466,M,1.6,0026*78
526,1619168786.4208252,$GPGGA,125538.60,5523.63914208,N,01022.82119220,E,2,13,0.8,13.992,M,39.466,M,1.6,0026*78
527,1619168786.9602432,$GPGGA,125538.60,5523.63914208,N,01022.82119220,E,2,13,0.8,13.992,M,39.466,M,1.6,0026*78
528,1619168787.499508,$GPGGA,125538.60,5523.63914208,N,01022.82119220,E,2,13,0.8,13.992,M,39.466,M,1.6,0026*78
529,1619168788.0387282,$GPGGA,125538.60,5523.63914208,N,01022.82119220,E,2,13,0.8,13.992,M,39.466,M,1.6,0026*78
530,1619168788.577278,$GPGGA,125538.60,5523.63914208,N,01022.82119220,E,2,13,0.8,13.992,M,39.466,M,1.6,0026*78
531,1619168789.117549,$GPGGA,125538.60,5523.63914208,N,01022.82119220,E,2,13,0.8,13.992,M,39.466,M,1.6,0026*78
532,1619168789.6560023,$GPGGA,125543.30,5523.63905511,N,01022.82583865,E,5,05,3.4,11.101,M,39.466,M,1.3,0026*78
533,1619168790.1941645,$GPGGA,125543.30,5523.63905511,N,01022.82583865,E,5,05,3.4,11.101,M,39.466,M,1.3,0026*78
534,1619168790.5963266,$GPGGA,125543.30,5523.63905511,N,01022.82583865,E,5,05,3.4,11.101,M,39.466,M,1.3,0026*78
535,1619168791.2643423,$GPGGA,125543.30,5523.63905511,N,01022.82583865,E,5,05,3.4,11.101,M,39.466,M,1.3,0026*78
536,1619168791.7390077,$GPGGA,125543.30,5523.63905511,N,01022.82583865,E,5,05,3.4,11.101,M,39.466,M,1.3,0026*78
537,1619168792.3464043,$GPGGA,125543.30,5523.63905511,N,01022.82583865,E,5,05,3.4,11.101,M,39.466,M,1.3,0026*78
538,1619168792.882992,$GPGGA,125543.30,5523.63905511,N,01022.82583865,E,5,05,3.4,11.101,M,39.466,M,1.3,0026*78
539,1619168793.421036,$GPGGA,125543.30,5523.63905511,N,01022.82583865,E,5,05,3.4,11.101,M,39.466,M,1.3,0026*78
540,1619168793.959438,$GPGGA,125543.30,5523.63905511,N,01022.82583865,E,5,05,3.4,11.101,M,39.466,M,1.3,0026*78
541,1619168794.4983358,$GPGGA,125543.30,5523.63905511,N,01022.82583865,E,5,05,3.4,11.101,M,39.466,M,1.3,0026*78
542,1619168794.900563,$GPGGA,125543.30,5523.63905511,N,01022.82583865,E,5,05,3.4,11.101,M,39.466,M,1.3,0026*78
543,1619168795.375823,$GPGGA,125543.30,5523.63905511,N,01022.82583865,E,5,05,3.4,11.101,M,39.466,M,1.3,0026*78
544,1619168796.115295,$GPGGA,125543.30,5523.63905511,N,01022.82583865,E,5,05,3.4,11.101,M,39.466,M,1.3,0026*78
545,1619168796.655157,$GPGGA,125543.30,5523.63905511,N,01022.82583865,E,5,05,3.4,11.101,M,39.466,M,1.3,0026*78
546,1619168797.1939409,$GPGGA,125543.30,5523.63905511,N,01022.82583865,E,5,05,3.4,11.101,M,39.466,M,1.3,0026*78
547,1619168797.7337608,$GPGGA,125543.30,5523.63905511,N,01022.82583865,E,5,05,3.4,11.101,M,39.466,M,1.3,0026*78
548,1619168798.2644467,$GPGGA,125543.30,5523.63905511,N,01022.82583865,E,5,05,3.4,11.101,M,39.466,M,1.3,0026*78
